[
  {
    "id": "blr-001",
    "name": "Kaikondrahalli Lake",
    "village": "Bengaluru Urban",
    "district": "Bengaluru Urban",
    "lat": 12.928755878067527,
    "lng": 77.61237292162272,
    "healthIndex": 9,
    "waterQuality": 4,
    "pollutionIndex": 91,
    "area": "286 acres",
    "status": "critical",
    "lastInspected": "2026-07-14",
    "reportsCount": 52,
    "cleaningDrives": 12,
    "image": "https://images.unsplash.com/photo-1590457632612-4ebf22d99723?w=400&q=80"
  },
  {
    "id": "blr-002",
    "name": "Kasavanahalli Lake",
    "village": "Bengaluru Urban",
    "district": "Bengaluru Urban",
    "lat": 12.989273556894775,
    "lng": 77.47206444362294,
    "healthIndex": 66,
    "waterQuality": 61,
    "pollutionIndex": 34,
    "area": "132 acres",
    "status": "moderate",
    "lastInspected": "2026-07-12",
    "reportsCount": 6,
    "cleaningDrives": 1,
    "image": "https://images.unsplash.com/photo-1579705745172-8ee4a9386d5e?w=400&q=80"
  },
  {
    "id": "blr-003",
    "name": "Sarakki Lake",
    "village": "Bengaluru Urban",
    "district": "Bengaluru Urban",
    "lat": 12.92985604321178,
    "lng": 77.73883635526738,
    "healthIndex": 64,
    "waterQuality": 59,
    "pollutionIndex": 36,
    "area": "179 acres",
    "status": "moderate",
    "lastInspected": "2026-07-09",
    "reportsCount": 2,
    "cleaningDrives": 0,
    "image": "https://images.unsplash.com/photo-1517409259160-c9a72dfd08c6?w=400&q=80"
  },
  {
    "id": "blr-004",
    "name": "Puttenahalli Lake",
    "village": "Bengaluru Urban",
    "district": "Bengaluru Urban",
    "lat": 12.859660427272459,
    "lng": 77.49344880931143,
    "healthIndex": 6,
    "waterQuality": 1,
    "pollutionIndex": 94,
    "area": "180 acres",
    "status": "critical",
    "lastInspected": "2026-07-16",
    "reportsCount": 39,
    "cleaningDrives": 11,
    "image": "https://images.unsplash.com/photo-1558980838-8fa89b2db3c1?w=400&q=80"
  },
  {
    "id": "blr-005",
    "name": "Madiwala Lake",
    "village": "Bengaluru Urban",
    "district": "Bengaluru Urban",
    "lat": 12.915394967127613,
    "lng": 77.64994947677472,
    "healthIndex": 86,
    "waterQuality": 81,
    "pollutionIndex": 14,
    "area": "113 acres",
    "status": "good",
    "lastInspected": "2026-07-12",
    "reportsCount": 2,
    "cleaningDrives": 10,
    "image": "https://images.unsplash.com/photo-1590457632612-4ebf22d99723?w=400&q=80"
  },
  {
    "id": "blr-006",
    "name": "Agara Lake",
    "village": "Bengaluru Urban",
    "district": "Bengaluru Urban",
    "lat": 12.916405741480093,
    "lng": 77.70416020541285,
    "healthIndex": 88,
    "waterQuality": 83,
    "pollutionIndex": 12,
    "area": "25 acres",
    "status": "good",
    "lastInspected": "2026-07-07",
    "reportsCount": 5,
    "cleaningDrives": 11,
    "image": "https://images.unsplash.com/photo-1579705745172-8ee4a9386d5e?w=400&q=80"
  },
  {
    "id": "blr-007",
    "name": "Ulsoor Lake",
    "village": "Bengaluru Urban",
    "district": "Bengaluru Urban",
    "lat": 12.963996478977823,
    "lng": 77.69958166324763,
    "healthIndex": 25,
    "waterQuality": 20,
    "pollutionIndex": 75,
    "area": "223 acres",
    "status": "critical",
    "lastInspected": "2026-07-15",
    "reportsCount": 21,
    "cleaningDrives": 5,
    "image": "https://images.unsplash.com/photo-1517409259160-c9a72dfd08c6?w=400&q=80"
  },
  {
    "id": "blr-008",
    "name": "Sankey Tank",
    "village": "Bengaluru Urban",
    "district": "Bengaluru Urban",
    "lat": 12.90173153399699,
    "lng": 77.68125903369679,
    "healthIndex": 76,
    "waterQuality": 71,
    "pollutionIndex": 24,
    "area": "138 acres",
    "status": "good",
    "lastInspected": "2026-07-08",
    "reportsCount": 3,
    "cleaningDrives": 13,
    "image": "https://images.unsplash.com/photo-1558980838-8fa89b2db3c1?w=400&q=80"
  },
  {
    "id": "blr-009",
    "name": "Yediyur Lake",
    "village": "Bengaluru Urban",
    "district": "Bengaluru Urban",
    "lat": 12.990428286964647,
    "lng": 77.66623134303187,
    "healthIndex": 12,
    "waterQuality": 7,
    "pollutionIndex": 88,
    "area": "218 acres",
    "status": "critical",
    "lastInspected": "2026-07-09",
    "reportsCount": 68,
    "cleaningDrives": 7,
    "image": "https://images.unsplash.com/photo-1590457632612-4ebf22d99723?w=400&q=80"
  },
  {
    "id": "blr-010",
    "name": "Bellandur Lake",
    "village": "Bengaluru Urban",
    "district": "Bengaluru Urban",
    "lat": 12.999804781918723,
    "lng": 77.62670098877292,
    "healthIndex": 10,
    "waterQuality": 5,
    "pollutionIndex": 90,
    "area": "84 acres",
    "status": "critical",
    "lastInspected": "2026-07-16",
    "reportsCount": 22,
    "cleaningDrives": 6,
    "image": "https://images.unsplash.com/photo-1579705745172-8ee4a9386d5e?w=400&q=80"
  },
  {
    "id": "blr-011",
    "name": "Varthur Lake",
    "village": "Bengaluru Urban",
    "district": "Bengaluru Urban",
    "lat": 12.878635349140634,
    "lng": 77.65612155743709,
    "healthIndex": 96,
    "waterQuality": 91,
    "pollutionIndex": 4,
    "area": "226 acres",
    "status": "good",
    "lastInspected": "2026-07-16",
    "reportsCount": 3,
    "cleaningDrives": 14,
    "image": "https://images.unsplash.com/photo-1517409259160-c9a72dfd08c6?w=400&q=80"
  },
  {
    "id": "blr-012",
    "name": "Jakkur Lake",
    "village": "Bengaluru Urban",
    "district": "Bengaluru Urban",
    "lat": 12.989655917613085,
    "lng": 77.73558668268304,
    "healthIndex": 27,
    "waterQuality": 22,
    "pollutionIndex": 73,
    "area": "131 acres",
    "status": "critical",
    "lastInspected": "2026-07-15",
    "reportsCount": 33,
    "cleaningDrives": 11,
    "image": "https://images.unsplash.com/photo-1558980838-8fa89b2db3c1?w=400&q=80"
  },
  {
    "id": "blr-013",
    "name": "Hebbal Lake",
    "village": "Bengaluru Urban",
    "district": "Bengaluru Urban",
    "lat": 12.940158104912513,
    "lng": 77.46783134102851,
    "healthIndex": 24,
    "waterQuality": 19,
    "pollutionIndex": 76,
    "area": "216 acres",
    "status": "critical",
    "lastInspected": "2026-07-14",
    "reportsCount": 31,
    "cleaningDrives": 12,
    "image": "https://images.unsplash.com/photo-1590457632612-4ebf22d99723?w=400&q=80"
  },
  {
    "id": "blr-014",
    "name": "Nagavara Lake",
    "village": "Bengaluru Urban",
    "district": "Bengaluru Urban",
    "lat": 13.043041118028242,
    "lng": 77.75667992875267,
    "healthIndex": 17,
    "waterQuality": 12,
    "pollutionIndex": 83,
    "area": "231 acres",
    "status": "critical",
    "lastInspected": "2026-07-06",
    "reportsCount": 23,
    "cleaningDrives": 11,
    "image": "https://images.unsplash.com/photo-1579705745172-8ee4a9386d5e?w=400&q=80"
  },
  {
    "id": "blr-015",
    "name": "Rachenahalli Lake",
    "village": "Bengaluru Urban",
    "district": "Bengaluru Urban",
    "lat": 12.89376353959562,
    "lng": 77.64226055600471,
    "healthIndex": 6,
    "waterQuality": 1,
    "pollutionIndex": 94,
    "area": "170 acres",
    "status": "critical",
    "lastInspected": "2026-07-16",
    "reportsCount": 24,
    "cleaningDrives": 13,
    "image": "https://images.unsplash.com/photo-1517409259160-c9a72dfd08c6?w=400&q=80"
  },
  {
    "id": "blr-016",
    "name": "Kalkere Lake",
    "village": "Bengaluru Urban",
    "district": "Bengaluru Urban",
    "lat": 12.87076589428032,
    "lng": 77.70773431185162,
    "healthIndex": 7,
    "waterQuality": 2,
    "pollutionIndex": 93,
    "area": "249 acres",
    "status": "critical",
    "lastInspected": "2026-07-09",
    "reportsCount": 45,
    "cleaningDrives": 9,
    "image": "https://images.unsplash.com/photo-1558980838-8fa89b2db3c1?w=400&q=80"
  },
  {
    "id": "blr-017",
    "name": "Doddabommasandra Lake",
    "village": "Bengaluru Urban",
    "district": "Bengaluru Urban",
    "lat": 12.864256368500431,
    "lng": 77.53745743393999,
    "healthIndex": 39,
    "waterQuality": 34,
    "pollutionIndex": 61,
    "area": "127 acres",
    "status": "critical",
    "lastInspected": "2026-07-11",
    "reportsCount": 21,
    "cleaningDrives": 8,
    "image": "https://images.unsplash.com/photo-1590457632612-4ebf22d99723?w=400&q=80"
  },
  {
    "id": "blr-018",
    "name": "Mathikere Lake",
    "village": "Bengaluru Urban",
    "district": "Bengaluru Urban",
    "lat": 13.024374210359852,
    "lng": 77.61394267987068,
    "healthIndex": 37,
    "waterQuality": 32,
    "pollutionIndex": 63,
    "area": "264 acres",
    "status": "critical",
    "lastInspected": "2026-07-02",
    "reportsCount": 51,
    "cleaningDrives": 9,
    "image": "https://images.unsplash.com/photo-1579705745172-8ee4a9386d5e?w=400&q=80"
  },
  {
    "id": "blr-019",
    "name": "Hesaraghatta Lake",
    "village": "Bengaluru Urban",
    "district": "Bengaluru Urban",
    "lat": 12.985832161450169,
    "lng": 77.56757924276477,
    "healthIndex": 3,
    "waterQuality": 0,
    "pollutionIndex": 97,
    "area": "100 acres",
    "status": "critical",
    "lastInspected": "2026-07-05",
    "reportsCount": 24,
    "cleaningDrives": 9,
    "image": "https://images.unsplash.com/photo-1517409259160-c9a72dfd08c6?w=400&q=80"
  },
  {
    "id": "blr-020",
    "name": "Yelahanka Lake",
    "village": "Bengaluru Urban",
    "district": "Bengaluru Urban",
    "lat": 12.94621437569169,
    "lng": 77.48073547812977,
    "healthIndex": 15,
    "waterQuality": 10,
    "pollutionIndex": 85,
    "area": "239 acres",
    "status": "critical",
    "lastInspected": "2026-07-12",
    "reportsCount": 26,
    "cleaningDrives": 13,
    "image": "https://images.unsplash.com/photo-1558980838-8fa89b2db3c1?w=400&q=80"
  },
  {
    "id": "blr-021",
    "name": "Kengeri Lake",
    "village": "Bengaluru Urban",
    "district": "Bengaluru Urban",
    "lat": 12.963412696193824,
    "lng": 77.55172990093797,
    "healthIndex": 48,
    "waterQuality": 43,
    "pollutionIndex": 52,
    "area": "239 acres",
    "status": "moderate",
    "lastInspected": "2026-07-15",
    "reportsCount": 0,
    "cleaningDrives": 3,
    "image": "https://images.unsplash.com/photo-1590457632612-4ebf22d99723?w=400&q=80"
  },
  {
    "id": "blr-022",
    "name": "Uttarahalli Lake",
    "village": "Bengaluru Urban",
    "district": "Bengaluru Urban",
    "lat": 12.909469702080226,
    "lng": 77.48464866963724,
    "healthIndex": 16,
    "waterQuality": 11,
    "pollutionIndex": 84,
    "area": "158 acres",
    "status": "critical",
    "lastInspected": "2026-07-03",
    "reportsCount": 36,
    "cleaningDrives": 3,
    "image": "https://images.unsplash.com/photo-1579705745172-8ee4a9386d5e?w=400&q=80"
  },
  {
    "id": "blr-023",
    "name": "Gottigere Lake",
    "village": "Bengaluru Urban",
    "district": "Bengaluru Urban",
    "lat": 12.945823162087086,
    "lng": 77.6102954584024,
    "healthIndex": 86,
    "waterQuality": 81,
    "pollutionIndex": 14,
    "area": "19 acres",
    "status": "good",
    "lastInspected": "2026-07-02",
    "reportsCount": 7,
    "cleaningDrives": 11,
    "image": "https://images.unsplash.com/photo-1517409259160-c9a72dfd08c6?w=400&q=80"
  },
  {
    "id": "blr-024",
    "name": "Hulimavu Lake",
    "village": "Bengaluru Urban",
    "district": "Bengaluru Urban",
    "lat": 12.910041617643234,
    "lng": 77.6662714926792,
    "healthIndex": 65,
    "waterQuality": 60,
    "pollutionIndex": 35,
    "area": "11 acres",
    "status": "moderate",
    "lastInspected": "2026-07-02",
    "reportsCount": 3,
    "cleaningDrives": 0,
    "image": "https://images.unsplash.com/photo-1558980838-8fa89b2db3c1?w=400&q=80"
  },
  {
    "id": "blr-025",
    "name": "Arekere Lake",
    "village": "Bengaluru Urban",
    "district": "Bengaluru Urban",
    "lat": 13.08735477506375,
    "lng": 77.52340469994787,
    "healthIndex": 12,
    "waterQuality": 7,
    "pollutionIndex": 88,
    "area": "27 acres",
    "status": "critical",
    "lastInspected": "2026-07-03",
    "reportsCount": 55,
    "cleaningDrives": 3,
    "image": "https://images.unsplash.com/photo-1590457632612-4ebf22d99723?w=400&q=80"
  },
  {
    "id": "blr-026",
    "name": "Kothanur Lake",
    "village": "Bengaluru Urban",
    "district": "Bengaluru Urban",
    "lat": 12.909737634797024,
    "lng": 77.50287669314852,
    "healthIndex": 56,
    "waterQuality": 51,
    "pollutionIndex": 44,
    "area": "102 acres",
    "status": "moderate",
    "lastInspected": "2026-07-04",
    "reportsCount": 7,
    "cleaningDrives": 14,
    "image": "https://images.unsplash.com/photo-1579705745172-8ee4a9386d5e?w=400&q=80"
  },
  {
    "id": "blr-027",
    "name": "Chunchaghatta Lake",
    "village": "Bengaluru Urban",
    "district": "Bengaluru Urban",
    "lat": 13.06577332236077,
    "lng": 77.62885548568352,
    "healthIndex": 18,
    "waterQuality": 13,
    "pollutionIndex": 82,
    "area": "75 acres",
    "status": "critical",
    "lastInspected": "2026-07-01",
    "reportsCount": 21,
    "cleaningDrives": 3,
    "image": "https://images.unsplash.com/photo-1517409259160-c9a72dfd08c6?w=400&q=80"
  },
  {
    "id": "blr-028",
    "name": "Sompura Lake",
    "village": "Bengaluru Urban",
    "district": "Bengaluru Urban",
    "lat": 12.93523799972395,
    "lng": 77.50020941403845,
    "healthIndex": 30,
    "waterQuality": 25,
    "pollutionIndex": 70,
    "area": "71 acres",
    "status": "critical",
    "lastInspected": "2026-07-14",
    "reportsCount": 55,
    "cleaningDrives": 6,
    "image": "https://images.unsplash.com/photo-1558980838-8fa89b2db3c1?w=400&q=80"
  },
  {
    "id": "blr-029",
    "name": "Kudlu Lake",
    "village": "Bengaluru Urban",
    "district": "Bengaluru Urban",
    "lat": 12.919831466114198,
    "lng": 77.46377837590047,
    "healthIndex": 62,
    "waterQuality": 57,
    "pollutionIndex": 38,
    "area": "127 acres",
    "status": "moderate",
    "lastInspected": "2026-07-07",
    "reportsCount": 0,
    "cleaningDrives": 5,
    "image": "https://images.unsplash.com/photo-1590457632612-4ebf22d99723?w=400&q=80"
  },
  {
    "id": "blr-030",
    "name": "Parappana Agrahara Lake",
    "village": "Bengaluru Urban",
    "district": "Bengaluru Urban",
    "lat": 12.98795757852024,
    "lng": 77.68565360532703,
    "healthIndex": 18,
    "waterQuality": 13,
    "pollutionIndex": 82,
    "area": "142 acres",
    "status": "critical",
    "lastInspected": "2026-07-01",
    "reportsCount": 69,
    "cleaningDrives": 12,
    "image": "https://images.unsplash.com/photo-1579705745172-8ee4a9386d5e?w=400&q=80"
  },
  {
    "id": "blr-031",
    "name": "Singasandra Lake",
    "village": "Bengaluru Urban",
    "district": "Bengaluru Urban",
    "lat": 12.894692721064809,
    "lng": 77.45077747186245,
    "healthIndex": 6,
    "waterQuality": 1,
    "pollutionIndex": 94,
    "area": "228 acres",
    "status": "critical",
    "lastInspected": "2026-07-06",
    "reportsCount": 25,
    "cleaningDrives": 0,
    "image": "https://images.unsplash.com/photo-1517409259160-c9a72dfd08c6?w=400&q=80"
  },
  {
    "id": "blr-032",
    "name": "Garvebhavipalya Lake",
    "village": "Bengaluru Urban",
    "district": "Bengaluru Urban",
    "lat": 13.003851318623637,
    "lng": 77.68803548718941,
    "healthIndex": 31,
    "waterQuality": 26,
    "pollutionIndex": 69,
    "area": "277 acres",
    "status": "critical",
    "lastInspected": "2026-07-14",
    "reportsCount": 31,
    "cleaningDrives": 4,
    "image": "https://images.unsplash.com/photo-1558980838-8fa89b2db3c1?w=400&q=80"
  },
  {
    "id": "blr-033",
    "name": "Bommanahalli Lake",
    "village": "Bengaluru Urban",
    "district": "Bengaluru Urban",
    "lat": 13.009022952952947,
    "lng": 77.62948052671042,
    "healthIndex": 68,
    "waterQuality": 63,
    "pollutionIndex": 32,
    "area": "93 acres",
    "status": "moderate",
    "lastInspected": "2026-07-09",
    "reportsCount": 7,
    "cleaningDrives": 2,
    "image": "https://images.unsplash.com/photo-1590457632612-4ebf22d99723?w=400&q=80"
  },
  {
    "id": "blr-034",
    "name": "Begur Lake",
    "village": "Bengaluru Urban",
    "district": "Bengaluru Urban",
    "lat": 13.01263488432875,
    "lng": 77.52597099849588,
    "healthIndex": 26,
    "waterQuality": 21,
    "pollutionIndex": 74,
    "area": "245 acres",
    "status": "critical",
    "lastInspected": "2026-07-12",
    "reportsCount": 22,
    "cleaningDrives": 3,
    "image": "https://images.unsplash.com/photo-1579705745172-8ee4a9386d5e?w=400&q=80"
  },
  {
    "id": "blr-035",
    "name": "Devarabisanahalli Lake",
    "village": "Bengaluru Urban",
    "district": "Bengaluru Urban",
    "lat": 13.036874489560946,
    "lng": 77.56553827619814,
    "healthIndex": 97,
    "waterQuality": 92,
    "pollutionIndex": 3,
    "area": "146 acres",
    "status": "good",
    "lastInspected": "2026-07-16",
    "reportsCount": 0,
    "cleaningDrives": 14,
    "image": "https://images.unsplash.com/photo-1517409259160-c9a72dfd08c6?w=400&q=80"
  },
  {
    "id": "blr-036",
    "name": "Kempapura Lake",
    "village": "Bengaluru Urban",
    "district": "Bengaluru Urban",
    "lat": 12.884793480653133,
    "lng": 77.77585866762675,
    "healthIndex": 40,
    "waterQuality": 35,
    "pollutionIndex": 60,
    "area": "68 acres",
    "status": "moderate",
    "lastInspected": "2026-07-11",
    "reportsCount": 5,
    "cleaningDrives": 8,
    "image": "https://images.unsplash.com/photo-1558980838-8fa89b2db3c1?w=400&q=80"
  },
  {
    "id": "blr-037",
    "name": "Challaghatta Lake",
    "village": "Bengaluru Urban",
    "district": "Bengaluru Urban",
    "lat": 13.095615413691714,
    "lng": 77.68425346334573,
    "healthIndex": 32,
    "waterQuality": 27,
    "pollutionIndex": 68,
    "area": "32 acres",
    "status": "critical",
    "lastInspected": "2026-07-05",
    "reportsCount": 58,
    "cleaningDrives": 10,
    "image": "https://images.unsplash.com/photo-1590457632612-4ebf22d99723?w=400&q=80"
  },
  {
    "id": "blr-038",
    "name": "Ambalipura Lake",
    "village": "Bengaluru Urban",
    "district": "Bengaluru Urban",
    "lat": 12.980994971172372,
    "lng": 77.77502338732961,
    "healthIndex": 79,
    "waterQuality": 74,
    "pollutionIndex": 21,
    "area": "282 acres",
    "status": "good",
    "lastInspected": "2026-07-02",
    "reportsCount": 7,
    "cleaningDrives": 1,
    "image": "https://images.unsplash.com/photo-1579705745172-8ee4a9386d5e?w=400&q=80"
  },
  {
    "id": "blr-039",
    "name": "Ibblur Lake",
    "village": "Bengaluru Urban",
    "district": "Bengaluru Urban",
    "lat": 12.904508918601554,
    "lng": 77.4676038914358,
    "healthIndex": 49,
    "waterQuality": 44,
    "pollutionIndex": 51,
    "area": "226 acres",
    "status": "moderate",
    "lastInspected": "2026-07-13",
    "reportsCount": 1,
    "cleaningDrives": 3,
    "image": "https://images.unsplash.com/photo-1517409259160-c9a72dfd08c6?w=400&q=80"
  },
  {
    "id": "blr-040",
    "name": "Kaikondrahalli Kere",
    "village": "Bengaluru Urban",
    "district": "Bengaluru Urban",
    "lat": 12.90626624590066,
    "lng": 77.60051494950223,
    "healthIndex": 36,
    "waterQuality": 31,
    "pollutionIndex": 64,
    "area": "254 acres",
    "status": "critical",
    "lastInspected": "2026-07-10",
    "reportsCount": 67,
    "cleaningDrives": 3,
    "image": "https://images.unsplash.com/photo-1558980838-8fa89b2db3c1?w=400&q=80"
  },
  {
    "id": "blr-041",
    "name": "Saul Kere",
    "village": "Bengaluru Urban",
    "district": "Bengaluru Urban",
    "lat": 13.076144927328116,
    "lng": 77.48243676023408,
    "healthIndex": 21,
    "waterQuality": 16,
    "pollutionIndex": 79,
    "area": "28 acres",
    "status": "critical",
    "lastInspected": "2026-07-08",
    "reportsCount": 42,
    "cleaningDrives": 3,
    "image": "https://images.unsplash.com/photo-1590457632612-4ebf22d99723?w=400&q=80"
  },
  {
    "id": "blr-042",
    "name": "Koramangala Lake",
    "village": "Bengaluru Urban",
    "district": "Bengaluru Urban",
    "lat": 12.927452496842125,
    "lng": 77.5408516676122,
    "healthIndex": 96,
    "waterQuality": 91,
    "pollutionIndex": 4,
    "area": "14 acres",
    "status": "good",
    "lastInspected": "2026-07-14",
    "reportsCount": 7,
    "cleaningDrives": 4,
    "image": "https://images.unsplash.com/photo-1579705745172-8ee4a9386d5e?w=400&q=80"
  },
  {
    "id": "blr-043",
    "name": "Ejipura Lake",
    "village": "Bengaluru Urban",
    "district": "Bengaluru Urban",
    "lat": 12.897237903911464,
    "lng": 77.71323042838381,
    "healthIndex": 17,
    "waterQuality": 12,
    "pollutionIndex": 83,
    "area": "79 acres",
    "status": "critical",
    "lastInspected": "2026-07-11",
    "reportsCount": 41,
    "cleaningDrives": 7,
    "image": "https://images.unsplash.com/photo-1517409259160-c9a72dfd08c6?w=400&q=80"
  },
  {
    "id": "blr-044",
    "name": "Domlur Lake",
    "village": "Bengaluru Urban",
    "district": "Bengaluru Urban",
    "lat": 13.087550390077938,
    "lng": 77.62059628343933,
    "healthIndex": 90,
    "waterQuality": 85,
    "pollutionIndex": 10,
    "area": "132 acres",
    "status": "good",
    "lastInspected": "2026-07-02",
    "reportsCount": 0,
    "cleaningDrives": 1,
    "image": "https://images.unsplash.com/photo-1558980838-8fa89b2db3c1?w=400&q=80"
  }
]